{
  "page=1,perPage=50,by=name,type=asc": [
    {
      "name": "7th",
      "location": 151832,
      "postalCode": "44470",
      "country": "NCL"
    },
    {
      "name": "Atwood",
      "location": 430280,
      "postalCode": "64486",
      "country": "GIB"
    },
    {
      "name": "Bartelt",
      "location": 625848,
      "postalCode": "28036",
      "country": "FRO"
    },
    {
      "name": "Bay",
      "location": 894946,
      "postalCode": "12147",
      "country": "MYT"
    },
    {
      "name": "Beilfuss",
      "location": 676423,
      "postalCode": "6811",
      "country": "SSD"
    },
    {
      "name": "Blaine",
      "location": 433048,
      "postalCode": "34753",
      "country": "COM"
    },
    {
      "name": "Bluestem",
      "location": 618331,
      "postalCode": "99927",
      "country": "NFK"
    },
    {
      "name": "Bunker Hill",
      "location": 600446,
      "postalCode": "77396",
      "country": "FSM"
    },
    {
      "name": "Bunting",
      "location": 949107,
      "postalCode": "18657",
      "country": "CPV"
    },
    {
      "name": "Coleman",
      "location": 432459,
      "postalCode": "20106",
      "country": "COG"
    },
    {
      "name": "Dakota",
      "location": 854509,
      "postalCode": "43533",
      "country": "IDN"
    },
    {
      "name": "Declaration",
      "location": 981567,
      "postalCode": "96022",
      "country": "MHL"
    },
    {
      "name": "Dennis",
      "location": 382263,
      "postalCode": "62985",
      "country": "SOM"
    },
    {
      "name": "Division",
      "location": 433448,
      "postalCode": "13078",
      "country": "NRU"
    },
    {
      "name": "Farragut",
      "location": 411246,
      "postalCode": "49953",
      "country": "LBR"
    },
    {
      "name": "Fulton",
      "location": 518763,
      "postalCode": "77396",
      "country": "OMN"
    },
    {
      "name": "Hollow Ridge",
      "location": 262857,
      "postalCode": "48023",
      "country": "VUT"
    },
    {
      "name": "Hovde",
      "location": 789530,
      "postalCode": "92530",
      "country": "IND"
    },
    {
      "name": "Jackson",
      "location": 377047,
      "postalCode": "47980",
      "country": "CUW"
    },
    {
      "name": "Kedzie",
      "location": 218206,
      "postalCode": "47630",
      "country": "AIA"
    },
    {
      "name": "Kings",
      "location": 343439,
      "postalCode": "92530",
      "country": "BHS"
    },
    {
      "name": "Kings",
      "location": 485537,
      "postalCode": "72569",
      "country": "SLE"
    },
    {
      "name": "Kings",
      "location": 597610,
      "postalCode": "17801",
      "country": "MMR"
    },
    {
      "name": "Knutson",
      "location": 399119,
      "postalCode": "16839",
      "country": "ALB"
    },
    {
      "name": "Loeprich",
      "location": 870467,
      "postalCode": "55350",
      "country": "PRK"
    },
    {
      "name": "Maple",
      "location": 777594,
      "postalCode": "84602",
      "country": "UKR"
    },
    {
      "name": "Mcguire",
      "location": 682721,
      "postalCode": "58835",
      "country": "LCA"
    },
    {
      "name": "Melody",
      "location": 865773,
      "postalCode": "4408",
      "country": "GTM"
    },
    {
      "name": "Miller",
      "location": 641259,
      "postalCode": "61084",
      "country": "LBY"
    },
    {
      "name": "Morning",
      "location": 578306,
      "postalCode": "62565",
      "country": "ETH"
    },
    {
      "name": "Morrow",
      "location": 868645,
      "postalCode": "13143",
      "country": "NOR"
    },
    {
      "name": "Nancy",
      "location": 517866,
      "postalCode": "38725",
      "country": "FSM"
    },
    {
      "name": "Ohio",
      "location": 215810,
      "postalCode": "55350",
      "country": "ETH"
    },
    {
      "name": "Pennsylvania",
      "location": 165209,
      "postalCode": "33837",
      "country": "FRA"
    },
    {
      "name": "Petterle",
      "location": 787866,
      "postalCode": "97266",
      "country": "AFG"
    },
    {
      "name": "Pine View",
      "location": 315110,
      "postalCode": "26151",
      "country": "CHN"
    },
    {
      "name": "Porter",
      "location": 500180,
      "postalCode": "50171",
      "country": "CHN"
    },
    {
      "name": "Quincy",
      "location": 914588,
      "postalCode": "12838",
      "country": "BEN"
    },
    {
      "name": "Raven",
      "location": 608816,
      "postalCode": "44659",
      "country": "BMU"
    },
    {
      "name": "Reinke",
      "location": 609180,
      "postalCode": "98544",
      "country": "FJI"
    },
    {
      "name": "Rigney",
      "location": 946666,
      "postalCode": "87831",
      "country": "LIE"
    },
    {
      "name": "Russell",
      "location": 989692,
      "postalCode": "68037",
      "country": "JEY"
    },
    {
      "name": "Rutledge",
      "location": 780659,
      "postalCode": "84003",
      "country": "CHE"
    },
    {
      "name": "Steensland",
      "location": 282033,
      "postalCode": "13117",
      "country": "JEY"
    },
    {
      "name": "Stone Corner",
      "location": 545500,
      "postalCode": "75002",
      "country": "BLM"
    },
    {
      "name": "Stoughton",
      "location": 240124,
      "postalCode": "98851",
      "country": "BGR"
    },
    {
      "name": "Stuart",
      "location": 448797,
      "postalCode": "74536",
      "country": "MUS"
    },
    {
      "name": "Vera",
      "location": 849476,
      "postalCode": "26810",
      "country": "KHM"
    },
    {
      "name": "Westend",
      "location": 416610,
      "postalCode": "75647",
      "country": "BHR"
    },
    {
      "name": "Westerfield",
      "location": 184603,
      "postalCode": "43457",
      "country": "MAC"
    }
  ],

  "page=1,perPage=50,by=name,type=desc": [
    {
      "name": "Westerfield",
      "location": 184603,
      "postalCode": "43457",
      "country": "MAC"
    },
    {
      "name": "Westend",
      "location": 416610,
      "postalCode": "75647",
      "country": "BHR"
    },
    {
      "name": "Vera",
      "location": 849476,
      "postalCode": "26810",
      "country": "KHM"
    },
    {
      "name": "Stuart",
      "location": 448797,
      "postalCode": "74536",
      "country": "MUS"
    },
    {
      "name": "Stoughton",
      "location": 240124,
      "postalCode": "98851",
      "country": "BGR"
    },
    {
      "name": "Stone Corner",
      "location": 545500,
      "postalCode": "75002",
      "country": "BLM"
    },
    {
      "name": "Steensland",
      "location": 282033,
      "postalCode": "13117",
      "country": "JEY"
    },
    {
      "name": "Rutledge",
      "location": 780659,
      "postalCode": "84003",
      "country": "CHE"
    },
    {
      "name": "Russell",
      "location": 989692,
      "postalCode": "68037",
      "country": "JEY"
    },
    {
      "name": "Rigney",
      "location": 946666,
      "postalCode": "87831",
      "country": "LIE"
    },
    {
      "name": "Reinke",
      "location": 609180,
      "postalCode": "98544",
      "country": "FJI"
    },
    {
      "name": "Raven",
      "location": 608816,
      "postalCode": "44659",
      "country": "BMU"
    },
    {
      "name": "Quincy",
      "location": 914588,
      "postalCode": "12838",
      "country": "BEN"
    },
    {
      "name": "Porter",
      "location": 500180,
      "postalCode": "50171",
      "country": "CHN"
    },
    {
      "name": "Pine View",
      "location": 315110,
      "postalCode": "26151",
      "country": "CHN"
    },
    {
      "name": "Petterle",
      "location": 787866,
      "postalCode": "97266",
      "country": "AFG"
    },
    {
      "name": "Pennsylvania",
      "location": 165209,
      "postalCode": "33837",
      "country": "FRA"
    },
    {
      "name": "Ohio",
      "location": 215810,
      "postalCode": "55350",
      "country": "ETH"
    },
    {
      "name": "Nancy",
      "location": 517866,
      "postalCode": "38725",
      "country": "FSM"
    },
    {
      "name": "Morrow",
      "location": 868645,
      "postalCode": "13143",
      "country": "NOR"
    },
    {
      "name": "Morning",
      "location": 578306,
      "postalCode": "62565",
      "country": "ETH"
    },
    {
      "name": "Miller",
      "location": 641259,
      "postalCode": "61084",
      "country": "LBY"
    },
    {
      "name": "Melody",
      "location": 865773,
      "postalCode": "4408",
      "country": "GTM"
    },
    {
      "name": "Mcguire",
      "location": 682721,
      "postalCode": "58835",
      "country": "LCA"
    },
    {
      "name": "Maple",
      "location": 777594,
      "postalCode": "84602",
      "country": "UKR"
    },
    {
      "name": "Loeprich",
      "location": 870467,
      "postalCode": "55350",
      "country": "PRK"
    },
    {
      "name": "Knutson",
      "location": 399119,
      "postalCode": "16839",
      "country": "ALB"
    },
    {
      "name": "Kings",
      "location": 343439,
      "postalCode": "92530",
      "country": "BHS"
    },
    {
      "name": "Kings",
      "location": 597610,
      "postalCode": "17801",
      "country": "MMR"
    },
    {
      "name": "Kings",
      "location": 485537,
      "postalCode": "72569",
      "country": "SLE"
    },
    {
      "name": "Kedzie",
      "location": 218206,
      "postalCode": "47630",
      "country": "AIA"
    },
    {
      "name": "Jackson",
      "location": 377047,
      "postalCode": "47980",
      "country": "CUW"
    },
    {
      "name": "Hovde",
      "location": 789530,
      "postalCode": "92530",
      "country": "IND"
    },
    {
      "name": "Hollow Ridge",
      "location": 262857,
      "postalCode": "48023",
      "country": "VUT"
    },
    {
      "name": "Fulton",
      "location": 518763,
      "postalCode": "77396",
      "country": "OMN"
    },
    {
      "name": "Farragut",
      "location": 411246,
      "postalCode": "49953",
      "country": "LBR"
    },
    {
      "name": "Division",
      "location": 433448,
      "postalCode": "13078",
      "country": "NRU"
    },
    {
      "name": "Dennis",
      "location": 382263,
      "postalCode": "62985",
      "country": "SOM"
    },
    {
      "name": "Declaration",
      "location": 981567,
      "postalCode": "96022",
      "country": "MHL"
    },
    {
      "name": "Dakota",
      "location": 854509,
      "postalCode": "43533",
      "country": "IDN"
    },
    {
      "name": "Coleman",
      "location": 432459,
      "postalCode": "20106",
      "country": "COG"
    },
    {
      "name": "Bunting",
      "location": 949107,
      "postalCode": "18657",
      "country": "CPV"
    },
    {
      "name": "Bunker Hill",
      "location": 600446,
      "postalCode": "77396",
      "country": "FSM"
    },
    {
      "name": "Bluestem",
      "location": 618331,
      "postalCode": "99927",
      "country": "NFK"
    },
    {
      "name": "Blaine",
      "location": 433048,
      "postalCode": "34753",
      "country": "COM"
    },
    {
      "name": "Beilfuss",
      "location": 676423,
      "postalCode": "6811",
      "country": "SSD"
    },
    {
      "name": "Bay",
      "location": 894946,
      "postalCode": "12147",
      "country": "MYT"
    },
    {
      "name": "Bartelt",
      "location": 625848,
      "postalCode": "28036",
      "country": "FRO"
    },
    {
      "name": "Atwood",
      "location": 430280,
      "postalCode": "64486",
      "country": "GIB"
    },
    {
      "name": "7th",
      "location": 151832,
      "postalCode": "44470",
      "country": "NCL"
    }
  ],

  "page=1,perPage=50,by=,type=": 
   [
    {
        "name": "Raven",
        "location": 608816,
        "postalCode": "44659",
        "country": "BMU"
    },
    {
        "name": "Miller",
        "location": 641259,
        "postalCode": "61084",
        "country": "LBY"
    },
    {
        "name": "Morrow",
        "location": 868645,
        "postalCode": "13143",
        "country": "NOR"
    },
    {
        "name": "Westerfield",
        "location": 184603,
        "postalCode": "43457",
        "country": "MAC"
    },
    {
        "name": "Beilfuss",
        "location": 676423,
        "postalCode": "6811",
        "country": "SSD"
    },
    {
        "name": "Pennsylvania",
        "location": 165209,
        "postalCode": "33837",
        "country": "FRA"
    },
    {
        "name": "Fulton",
        "location": 518763,
        "postalCode": "77396",
        "country": "OMN"
    },
    {
        "name": "Kings",
        "location": 343439,
        "postalCode": "92530",
        "country": "BHS"
    },
    {
        "name": "Coleman",
        "location": 432459,
        "postalCode": "20106",
        "country": "COG"
    },
    {
        "name": "Farragut",
        "location": 411246,
        "postalCode": "49953",
        "country": "LBR"
    },
    {
        "name": "Atwood",
        "location": 430280,
        "postalCode": "64486",
        "country": "GIB"
    },
    {
        "name": "Rigney",
        "location": 946666,
        "postalCode": "87831",
        "country": "LIE"
    },
    {
        "name": "Kedzie",
        "location": 218206,
        "postalCode": "47630",
        "country": "AIA"
    },
    {
        "name": "Stone Corner",
        "location": 545500,
        "postalCode": "75002",
        "country": "BLM"
    },
    {
        "name": "Porter",
        "location": 500180,
        "postalCode": "50171",
        "country": "CHN"
    },
    {
        "name": "Bay",
        "location": 894946,
        "postalCode": "12147",
        "country": "MYT"
    },
    {
        "name": "Ohio",
        "location": 215810,
        "postalCode": "55350",
        "country": "ETH"
    },
    {
        "name": "Bunting",
        "location": 949107,
        "postalCode": "18657",
        "country": "CPV"
    },
    {
        "name": "Dakota",
        "location": 854509,
        "postalCode": "43533",
        "country": "IDN"
    },
    {
        "name": "Pine View",
        "location": 315110,
        "postalCode": "26151",
        "country": "CHN"
    },
    {
        "name": "Stoughton",
        "location": 240124,
        "postalCode": "98851",
        "country": "BGR"
    },
    {
        "name": "Steensland",
        "location": 282033,
        "postalCode": "13117",
        "country": "JEY"
    },
    {
        "name": "Jackson",
        "location": 377047,
        "postalCode": "47980",
        "country": "CUW"
    },
    {
        "name": "Mcguire",
        "location": 682721,
        "postalCode": "58835",
        "country": "LCA"
    },
    {
        "name": "Rutledge",
        "location": 780659,
        "postalCode": "84003",
        "country": "CHE"
    },
    {
        "name": "Knutson",
        "location": 399119,
        "postalCode": "16839",
        "country": "ALB"
    },
    {
        "name": "Reinke",
        "location": 609180,
        "postalCode": "98544",
        "country": "FJI"
    },
    {
        "name": "Declaration",
        "location": 981567,
        "postalCode": "96022",
        "country": "MHL"
    },
    {
        "name": "7th",
        "location": 151832,
        "postalCode": "44470",
        "country": "NCL"
    },
    {
        "name": "Westend",
        "location": 416610,
        "postalCode": "75647",
        "country": "BHR"
    },
    {
        "name": "Hollow Ridge",
        "location": 262857,
        "postalCode": "48023",
        "country": "VUT"
    },
    {
        "name": "Petterle",
        "location": 787866,
        "postalCode": "97266",
        "country": "AFG"
    },
    {
        "name": "Maple",
        "location": 777594,
        "postalCode": "84602",
        "country": "UKR"
    },
    {
        "name": "Bluestem",
        "location": 618331,
        "postalCode": "99927",
        "country": "NFK"
    },
    {
        "name": "Bunker Hill",
        "location": 600446,
        "postalCode": "77396",
        "country": "FSM"
    },
    {
        "name": "Dennis",
        "location": 382263,
        "postalCode": "62985",
        "country": "SOM"
    },
    {
        "name": "Loeprich",
        "location": 870467,
        "postalCode": "55350",
        "country": "PRK"
    },
    {
        "name": "Quincy",
        "location": 914588,
        "postalCode": "12838",
        "country": "BEN"
    },
    {
        "name": "Kings",
        "location": 485537,
        "postalCode": "72569",
        "country": "SLE"
    },
    {
        "name": "Blaine",
        "location": 433048,
        "postalCode": "34753",
        "country": "COM"
    },
    {
        "name": "Bartelt",
        "location": 625848,
        "postalCode": "28036",
        "country": "FRO"
    },
    {
        "name": "Stuart",
        "location": 448797,
        "postalCode": "74536",
        "country": "MUS"
    },
    {
        "name": "Vera",
        "location": 849476,
        "postalCode": "26810",
        "country": "KHM"
    },
    {
        "name": "Division",
        "location": 433448,
        "postalCode": "13078",
        "country": "NRU"
    },
    {
        "name": "Kings",
        "location": 597610,
        "postalCode": "17801",
        "country": "MMR"
    },
    {
        "name": "Morning",
        "location": 578306,
        "postalCode": "62565",
        "country": "ETH"
    },
    {
        "name": "Melody",
        "location": 865773,
        "postalCode": "4408",
        "country": "GTM"
    },
    {
        "name": "Russell",
        "location": 989692,
        "postalCode": "68037",
        "country": "JEY"
    },
    {
        "name": "Nancy",
        "location": 517866,
        "postalCode": "38725",
        "country": "FSM"
    },
    {
        "name": "Hovde",
        "location": 789530,
        "postalCode": "92530",
        "country": "IND"
    }
],

  "default": [
    {
      "name": "Hovde",
      "postalCode": 92530,
      "location": 789530,
      "country": "IND"
    },
    {
      "name": "Nancy",
      "postalCode": 38725,
      "location": 517866,
      "country": "FSM"
    },
    {
      "name": "Russell",
      "postalCode": 68037,
      "location": 989692,
      "country": "JEY"
    },
    {
      "name": "Melody",
      "postalCode": 4408,
      "location": 865773,
      "country": "GTM"
    },
    {
      "name": "Morning",
      "postalCode": 62565,
      "location": 578306,
      "country": "ETH"
    },
    {
      "name": "Kings",
      "postalCode": 17801,
      "location": 597610,
      "country": "MMR"
    },
    {
      "name": "Division",
      "postalCode": 13078,
      "location": 433448,
      "country": "NRU"
    },
    {
      "name": "Vera",
      "postalCode": 26810,
      "location": 849476,
      "country": "KHM"
    },
    {
      "name": "Stuart",
      "postalCode": 74536,
      "location": 448797,
      "country": "MUS"
    },
    {
      "name": "Bartelt",
      "postalCode": 28036,
      "location": 625848,
      "country": "FRO"
    },
    {
      "name": "Blaine",
      "postalCode": 34753,
      "location": 433048,
      "country": "COM"
    },
    {
      "name": "Kings",
      "postalCode": 72569,
      "location": 485537,
      "country": "SLE"
    },
    {
      "name": "Quincy",
      "postalCode": 12838,
      "location": 914588,
      "country": "BEN"
    },
    {
      "name": "Loeprich",
      "postalCode": 55350,
      "location": 870467,
      "country": "PRK"
    },
    {
      "name": "Dennis",
      "postalCode": 62985,
      "location": 382263,
      "country": "SOM"
    },
    {
      "name": "Bunker Hill",
      "postalCode": 77396,
      "location": 600446,
      "country": "FSM"
    },
    {
      "name": "Bluestem",
      "postalCode": 99927,
      "location": 618331,
      "country": "NFK"
    },
    {
      "name": "Maple",
      "postalCode": 84602,
      "location": 777594,
      "country": "UKR"
    },
    {
      "name": "Petterle",
      "postalCode": 97266,
      "location": 787866,
      "country": "AFG"
    },
    {
      "name": "Hollow Ridge",
      "postalCode": 48023,
      "location": 262857,
      "country": "VUT"
    },
    {
      "name": "Westend",
      "postalCode": 75647,
      "location": 416610,
      "country": "BHR"
    },
    {
      "name": "7th",
      "postalCode": 44470,
      "location": 151832,
      "country": "NCL"
    },
    {
      "name": "Declaration",
      "postalCode": 96022,
      "location": 981567,
      "country": "MHL"
    },
    {
      "name": "Reinke",
      "postalCode": 98544,
      "location": 609180,
      "country": "FJI"
    },
    {
      "name": "Knutson",
      "postalCode": 16839,
      "location": 399119,
      "country": "ALB"
    },
    {
      "name": "Rutledge",
      "postalCode": 84003,
      "location": 780659,
      "country": "CHE"
    },
    {
      "name": "Mcguire",
      "postalCode": 58835,
      "location": 682721,
      "country": "LCA"
    },
    {
      "name": "Jackson",
      "postalCode": 47980,
      "location": 377047,
      "country": "CUW"
    },
    {
      "name": "Steensland",
      "postalCode": 13117,
      "location": 282033,
      "country": "JEY"
    },
    {
      "name": "Stoughton",
      "postalCode": 98851,
      "location": 240124,
      "country": "BGR"
    },
    {
      "name": "Pine View",
      "postalCode": 26151,
      "location": 315110,
      "country": "CHN"
    },
    {
      "name": "Dakota",
      "postalCode": 43533,
      "location": 854509,
      "country": "IDN"
    },
    {
      "name": "Bunting",
      "postalCode": 18657,
      "location": 949107,
      "country": "CPV"
    },
    {
      "name": "Ohio",
      "postalCode": 55350,
      "location": 215810,
      "country": "ETH"
    },
    {
      "name": "Bay",
      "postalCode": 12147,
      "location": 894946,
      "country": "MYT"
    },
    {
      "name": "Porter",
      "postalCode": 50171,
      "location": 500180,
      "country": "CHN"
    },
    {
      "name": "Stone Corner",
      "postalCode": 75002,
      "location": 545500,
      "country": "BLM"
    },
    {
      "name": "Kedzie",
      "postalCode": 47630,
      "location": 218206,
      "country": "AIA"
    },
    {
      "name": "Rigney",
      "postalCode": 87831,
      "location": 946666,
      "country": "LIE"
    },
    {
      "name": "Atwood",
      "postalCode": 64486,
      "location": 430280,
      "country": "GIB"
    },
    {
      "name": "Farragut",
      "postalCode": 49953,
      "location": 411246,
      "country": "LBR"
    },
    {
      "name": "Coleman",
      "postalCode": 20106,
      "location": 432459,
      "country": "COG"
    },
    {
      "name": "Kings",
      "postalCode": 92530,
      "location": 343439,
      "country": "BHS"
    },
    {
      "name": "Fulton",
      "postalCode": 77396,
      "location": 518763,
      "country": "OMN"
    },
    {
      "name": "Pennsylvania",
      "postalCode": 33837,
      "location": 165209,
      "country": "FRA"
    },
    {
      "name": "Beilfuss",
      "postalCode": 6811,
      "location": 676423,
      "country": "SSD"
    },
    {
      "name": "Westerfield",
      "postalCode": 43457,
      "location": 184603,
      "country": "MAC"
    },
    {
      "name": "Morrow",
      "postalCode": 13143,
      "location": 868645,
      "country": "NOR"
    },
    {
      "name": "Miller",
      "postalCode": 61084,
      "location": 641259,
      "country": "LBY"
    },
    {
      "name": "Raven",
      "postalCode": 44659,
      "location": 608816,
      "country": "BMU"
    }
  ]
}

